{
"type": "FeatureCollection",
"name": "bkopen",
"crs": { "type": "name", "properties": { "name": "urn:ogc:def:crs:OGC:1.3:CRS84" } },
"features": [
{ "type": "Feature", "properties": { "Restaurant Name": "Philly Pretzel Factory", "Time of Submission": "08\/15\/2020 09:58:00 AM" }, "geometry": { "type": "Point", "coordinates": [ -73.978934, 40.678651 ] } },
{ "type": "Feature", "properties": { "Restaurant Name": "ZAMAAN", "Time of Submission": "09\/01\/2020 02:54:00 PM" }, "geometry": null },
{ "type": "Feature", "properties": { "Restaurant Name": "Asian Kabab and Curry", "Time of Submission": "08\/14\/2020 06:10:00 PM" }, "geometry": null },
{ "type": "Feature", "properties": { "Restaurant Name": "EL SALVADOR RESTAURANT", "Time of Submission": "08\/26\/2020 11:53:00 AM" }, "geometry": null },
{ "type": "Feature", "properties": { "Restaurant Name": "Il Bel Paese Pizzeria & Trattoria", "Time of Submission": "08\/15\/2020 04:04:00 PM" }, "geometry": { "type": "Point", "coordinates": [ -73.923383, 40.701684 ] } },
{ "type": "Feature", "properties": { "Restaurant Name": "DELI EL BIGOTES", "Time of Submission": "08\/25\/2020 02:56:00 PM" }, "geometry": null },
{ "type": "Feature", "properties": { "Restaurant Name": "Padishah Restaurant", "Time of Submission": "08\/15\/2020 09:33:00 AM" }, "geometry": null },
{ "type": "Feature", "properties": { "Restaurant Name": "TASTY BAKERY", "Time of Submission": "08\/25\/2020 06:48:00 PM" }, "geometry": null },
{ "type": "Feature", "properties": { "Restaurant Name": "GOLDEN RING", "Time of Submission": "08\/25\/2020 02:07:00 PM" }, "geometry": null },
{ "type": "Feature", "properties": { "Restaurant Name": "CHOLULA DELI GROCERY", "Time of Submission": "08\/25\/2020 12:00:00 PM" }, "geometry": null },
{ "type": "Feature", "properties": { "Restaurant Name": "Blendzville Cafe Inc", "Time of Submission": "08\/16\/2020 07:39:00 PM" }, "geometry": { "type": "Point", "coordinates": [ -73.922905, 40.665274 ] } },
{ "type": "Feature", "properties": { "Restaurant Name": "Asian Kabab and Curry", "Time of Submission": "08\/14\/2020 06:06:00 PM" }, "geometry": null },
{ "type": "Feature", "properties": { "Restaurant Name": "CAFE EUROASIA", "Time of Submission": "09\/07\/2020 09:58:00 PM" }, "geometry": null },
{ "type": "Feature", "properties": { "Restaurant Name": "MARIA ON THE GRILL INC", "Time of Submission": "08\/17\/2020 11:14:00 AM" }, "geometry": { "type": "Point", "coordinates": [ -73.873208, 40.67521 ] } },
{ "type": "Feature", "properties": { "Restaurant Name": "Kitsby Dessert Bar", "Time of Submission": "08\/16\/2020 01:08:00 PM" }, "geometry": { "type": "Point", "coordinates": [ -73.96075, 40.714271 ] } },
{ "type": "Feature", "properties": { "Restaurant Name": "Tel Aviv Cafe", "Time of Submission": "08\/14\/2020 10:17:00 PM" }, "geometry": { "type": "Point", "coordinates": [ -73.962532, 40.610876 ] } },
{ "type": "Feature", "properties": { "Restaurant Name": "Bronx Ice Co", "Time of Submission": "08\/14\/2020 05:14:00 PM" }, "geometry": { "type": "Point", "coordinates": [ -73.954979, 40.734646 ] } },
{ "type": "Feature", "properties": { "Restaurant Name": "Ample Hills Creamery", "Time of Submission": "08\/17\/2020 11:35:00 AM" }, "geometry": { "type": "Point", "coordinates": [ -73.983452, 40.690833 ] } },
{ "type": "Feature", "properties": { "Restaurant Name": "BOCA SANTA", "Time of Submission": "09\/28\/2020 03:36:00 PM" }, "geometry": null },
{ "type": "Feature", "properties": { "Restaurant Name": "Grab & Go Cafe", "Time of Submission": "08\/15\/2020 11:16:00 AM" }, "geometry": { "type": "Point", "coordinates": [ -74.016867, 40.63991 ] } },
{ "type": "Feature", "properties": { "Restaurant Name": "GOLDEN CITY SEAFOOD RESTAURANT", "Time of Submission": "09\/03\/2020 08:37:00 PM" }, "geometry": null },
{ "type": "Feature", "properties": { "Restaurant Name": "XILONEN", "Time of Submission": "11\/24\/2020 02:11:00 PM" }, "geometry": null },
{ "type": "Feature", "properties": { "Restaurant Name": "NEW GOURMET MAYLIN", "Time of Submission": "09\/28\/2020 07:20:00 PM" }, "geometry": null },
{ "type": "Feature", "properties": { "Restaurant Name": "OASIS CAFE", "Time of Submission": "09\/08\/2020 10:32:00 PM" }, "geometry": null },
{ "type": "Feature", "properties": { "Restaurant Name": "KITH TREATS", "Time of Submission": "09\/30\/2020 02:48:00 PM" }, "geometry": null },
{ "type": "Feature", "properties": { "Restaurant Name": "Pizza Brook", "Time of Submission": "09\/08\/2020 02:07:00 PM" }, "geometry": null },
{ "type": "Feature", "properties": { "Restaurant Name": "BUSHWICK GRIND COFFEE HOUSE", "Time of Submission": "10\/22\/2020 10:07:00 PM" }, "geometry": null },
{ "type": "Feature", "properties": { "Restaurant Name": "VERDE CAFE &amp; LOUNGE", "Time of Submission": "10\/27\/2020 04:21:00 PM" }, "geometry": null },
{ "type": "Feature", "properties": { "Restaurant Name": "MOTI'S", "Time of Submission": "09\/24\/2020 06:04:00 PM" }, "geometry": null },
{ "type": "Feature", "properties": { "Restaurant Name": "SKY ICE 9TH ST", "Time of Submission": "10\/07\/2020 05:43:00 PM" }, "geometry": null },
{ "type": "Feature", "properties": { "Restaurant Name": "BABE&amp;AL \/ IDEAL SUPERMARKET", "Time of Submission": "09\/09\/2020 12:34:00 PM" }, "geometry": null },
{ "type": "Feature", "properties": { "Restaurant Name": "OMAR KHAYYAM CAFE", "Time of Submission": "10\/08\/2020 08:47:00 PM" }, "geometry": null },
{ "type": "Feature", "properties": { "Restaurant Name": "FOR ALL THINGS GOOD", "Time of Submission": "10\/08\/2020 11:07:00 PM" }, "geometry": null },
{ "type": "Feature", "properties": { "Restaurant Name": "MONEY CAT VIETNAMESE KITCHEN", "Time of Submission": "10\/31\/2020 11:11:00 AM" }, "geometry": null },
{ "type": "Feature", "properties": { "Restaurant Name": "LE LABO CAFE", "Time of Submission": "09\/10\/2020 02:55:00 PM" }, "geometry": null },
{ "type": "Feature", "properties": { "Restaurant Name": "FRESH WOK", "Time of Submission": "10\/30\/2020 02:46:00 PM" }, "geometry": null },
{ "type": "Feature", "properties": { "Restaurant Name": "JOE COFFEE COMPANY", "Time of Submission": "10\/30\/2020 05:09:00 PM" }, "geometry": null },
{ "type": "Feature", "properties": { "Restaurant Name": "DANNY'S TASTY DELIGHT BAKERY\/RESTAURANT", "Time of Submission": "10\/08\/2020 01:26:00 PM" }, "geometry": null },
{ "type": "Feature", "properties": { "Restaurant Name": "Love and Dough", "Time of Submission": "08\/17\/2020 04:06:00 PM" }, "geometry": { "type": "Point", "coordinates": [ -73.987582, 40.703056 ] } },
{ "type": "Feature", "properties": { "Restaurant Name": "VELVETTE BREW", "Time of Submission": "09\/11\/2020 10:51:00 PM" }, "geometry": null },
{ "type": "Feature", "properties": { "Restaurant Name": "BLUE BOTTLE COFFEE", "Time of Submission": "09\/13\/2020 04:13:00 PM" }, "geometry": null },
{ "type": "Feature", "properties": { "Restaurant Name": "S,T COFFEE", "Time of Submission": "09\/13\/2020 02:13:00 PM" }, "geometry": null },
{ "type": "Feature", "properties": { "Restaurant Name": "QAHWAH HOUSE", "Time of Submission": "11\/04\/2020 01:59:00 PM" }, "geometry": null },
{ "type": "Feature", "properties": { "Restaurant Name": "BLUE BOTTLE COFFEE", "Time of Submission": "11\/02\/2020 01:17:00 PM" }, "geometry": null },
{ "type": "Feature", "properties": { "Restaurant Name": "CIAO, GLORIA", "Time of Submission": "11\/05\/2020 11:33:00 AM" }, "geometry": null },
{ "type": "Feature", "properties": { "Restaurant Name": "Mcdonalds", "Time of Submission": "08\/19\/2020 01:41:00 PM" }, "geometry": { "type": "Point", "coordinates": [ -73.947655, 40.632428 ] } },
{ "type": "Feature", "properties": { "Restaurant Name": "VELVETTE BREW", "Time of Submission": "09\/11\/2020 12:05:00 PM" }, "geometry": null },
{ "type": "Feature", "properties": { "Restaurant Name": "CUP OF LOVE", "Time of Submission": "11\/05\/2020 04:08:00 PM" }, "geometry": null },
{ "type": "Feature", "properties": { "Restaurant Name": "FONDA GARIBALDI", "Time of Submission": "10\/16\/2020 07:04:00 PM" }, "geometry": null },
{ "type": "Feature", "properties": { "Restaurant Name": "BAGEL POINT", "Time of Submission": "11\/11\/2020 10:41:00 AM" }, "geometry": null },
{ "type": "Feature", "properties": { "Restaurant Name": "HOLE IN THE WALL", "Time of Submission": "11\/09\/2020 01:37:00 PM" }, "geometry": null },
{ "type": "Feature", "properties": { "Restaurant Name": "THE ROYAL RESTAURANT", "Time of Submission": "11\/10\/2020 01:46:00 PM" }, "geometry": null },
{ "type": "Feature", "properties": { "Restaurant Name": "URSULA", "Time of Submission": "11\/10\/2020 12:48:00 PM" }, "geometry": null },
{ "type": "Feature", "properties": { "Restaurant Name": "TASTE OF CHINA", "Time of Submission": "11\/09\/2020 11:56:00 PM" }, "geometry": null },
{ "type": "Feature", "properties": { "Restaurant Name": "LUCY'S VIETANAMESE", "Time of Submission": "10\/18\/2020 02:20:00 PM" }, "geometry": null },
{ "type": "Feature", "properties": { "Restaurant Name": "CAFE VOLKAN", "Time of Submission": "09\/15\/2020 12:13:00 PM" }, "geometry": null },
{ "type": "Feature", "properties": { "Restaurant Name": "ELEVA COFFEE BAR", "Time of Submission": "08\/31\/2020 12:09:00 PM" }, "geometry": null },
{ "type": "Feature", "properties": { "Restaurant Name": "COBBLE HILL CINEMAS", "Time of Submission": "11\/11\/2020 02:04:00 PM" }, "geometry": null },
{ "type": "Feature", "properties": { "Restaurant Name": "THE JUICE SHOP", "Time of Submission": "11\/09\/2020 02:42:00 PM" }, "geometry": null },
{ "type": "Feature", "properties": { "Restaurant Name": "JUST SALAD", "Time of Submission": "09\/16\/2020 01:44:00 PM" }, "geometry": null },
{ "type": "Feature", "properties": { "Restaurant Name": "MAMA PHO", "Time of Submission": "09\/19\/2020 12:19:00 PM" }, "geometry": null },
{ "type": "Feature", "properties": { "Restaurant Name": "WILLIAMSBURG THAI CUISINE", "Time of Submission": "09\/19\/2020 11:20:00 AM" }, "geometry": null },
{ "type": "Feature", "properties": { "Restaurant Name": "Flora", "Time of Submission": "08\/18\/2020 09:59:00 AM" }, "geometry": null },
{ "type": "Feature", "properties": { "Restaurant Name": "WILLIAMSBURG THAI CUISINE", "Time of Submission": "09\/19\/2020 11:24:00 AM" }, "geometry": null },
{ "type": "Feature", "properties": { "Restaurant Name": "ALEGRIA BAR &amp; RESTAURANT", "Time of Submission": "09\/18\/2020 08:41:00 PM" }, "geometry": null },
{ "type": "Feature", "properties": { "Restaurant Name": "ALEGRIA BAR &amp; RESTAURANT", "Time of Submission": "09\/18\/2020 08:35:00 PM" }, "geometry": null },
{ "type": "Feature", "properties": { "Restaurant Name": "KONDITORI", "Time of Submission": "09\/19\/2020 10:13:00 AM" }, "geometry": null },
{ "type": "Feature", "properties": { "Restaurant Name": "Juice &amp; Tings", "Time of Submission": "09\/30\/2020 03:52:00 PM" }, "geometry": null },
{ "type": "Feature", "properties": { "Restaurant Name": "P&S Bakery and Restaurant", "Time of Submission": "08\/17\/2020 11:35:00 PM" }, "geometry": { "type": "Point", "coordinates": [ -73.930259, 40.650721 ] } },
{ "type": "Feature", "properties": { "Restaurant Name": "Focaccia pizza", "Time of Submission": "08\/17\/2020 02:28:00 PM" }, "geometry": { "type": "Point", "coordinates": [ -73.961642, 40.617825 ] } },
{ "type": "Feature", "properties": { "Restaurant Name": "FAMILY ALTAGRACIA CARIBBEAN CUISINE", "Time of Submission": "10\/14\/2020 05:55:00 PM" }, "geometry": null },
{ "type": "Feature", "properties": { "Restaurant Name": "Metro Feast", "Time of Submission": "08\/03\/2020 01:23:00 PM" }, "geometry": null },
{ "type": "Feature", "properties": { "Restaurant Name": "Metro Feast", "Time of Submission": "08\/03\/2020 01:48:00 PM" }, "geometry": null },
{ "type": "Feature", "properties": { "Restaurant Name": "BLOSSOM ICE CREAM", "Time of Submission": "09\/29\/2020 01:38:00 PM" }, "geometry": null },
{ "type": "Feature", "properties": { "Restaurant Name": "Los Tacos Al Pastor", "Time of Submission": "08\/17\/2020 03:53:00 PM" }, "geometry": { "type": "Point", "coordinates": [ -73.987492, 40.702461 ] } },
{ "type": "Feature", "properties": { "Restaurant Name": "ABC El Salvadorin Grocery INC", "Time of Submission": "08\/07\/2020 02:51:00 PM" }, "geometry": null },
{ "type": "Feature", "properties": { "Restaurant Name": "Gerizim Burger Factory", "Time of Submission": "08\/07\/2020 04:00:00 PM" }, "geometry": null },
{ "type": "Feature", "properties": { "Restaurant Name": "Gerizim Burger Factory", "Time of Submission": "08\/07\/2020 04:23:00 PM" }, "geometry": null },
{ "type": "Feature", "properties": { "Restaurant Name": "Gerizim Burger Factory", "Time of Submission": "08\/07\/2020 04:40:00 PM" }, "geometry": null },
{ "type": "Feature", "properties": { "Restaurant Name": "Gerizim Burger Factory", "Time of Submission": "08\/07\/2020 07:14:00 PM" }, "geometry": null },
{ "type": "Feature", "properties": { "Restaurant Name": "URSULA", "Time of Submission": "10\/01\/2020 08:47:00 PM" }, "geometry": null },
{ "type": "Feature", "properties": { "Restaurant Name": "BLUE BOTTLE COFFEE", "Time of Submission": "10\/02\/2020 10:32:00 AM" }, "geometry": null },
{ "type": "Feature", "properties": { "Restaurant Name": "BLUE BOTTLE COFFEE", "Time of Submission": "10\/02\/2020 10:36:00 AM" }, "geometry": null },
{ "type": "Feature", "properties": { "Restaurant Name": "MERCADO LA MERCED NYC", "Time of Submission": "10\/01\/2020 03:49:00 PM" }, "geometry": null },
{ "type": "Feature", "properties": { "Restaurant Name": "Affy's Premium Grill", "Time of Submission": "08\/19\/2020 03:12:00 PM" }, "geometry": null },
{ "type": "Feature", "properties": { "Restaurant Name": "AITA RESTAURANT\/MAYFLOWER", "Time of Submission": "10\/23\/2020 02:14:00 PM" }, "geometry": null },
{ "type": "Feature", "properties": { "Restaurant Name": "CAFE EUROASIA", "Time of Submission": "10\/25\/2020 07:59:00 PM" }, "geometry": null },
{ "type": "Feature", "properties": { "Restaurant Name": "CAFE MAX", "Time of Submission": "12\/07\/2020 01:57:00 PM" }, "geometry": null },
{ "type": "Feature", "properties": { "Restaurant Name": "Love and Dough", "Time of Submission": "08\/17\/2020 04:09:00 PM" }, "geometry": { "type": "Point", "coordinates": [ -73.987582, 40.703056 ] } },
{ "type": "Feature", "properties": { "Restaurant Name": "TAK HING KITCHEN INC", "Time of Submission": "08\/17\/2020 05:26:00 PM" }, "geometry": { "type": "Point", "coordinates": [ -73.999363, 40.605263 ] } },
{ "type": "Feature", "properties": { "Restaurant Name": "KONDITORI", "Time of Submission": "08\/27\/2020 04:54:00 PM" }, "geometry": null },
{ "type": "Feature", "properties": { "Restaurant Name": "Mango Mango Desert", "Time of Submission": "08\/17\/2020 04:41:00 PM" }, "geometry": { "type": "Point", "coordinates": [ -73.997735, 40.604286 ] } },
{ "type": "Feature", "properties": { "Restaurant Name": "XIANG ZHI RESTAURANT", "Time of Submission": "09\/27\/2020 04:25:00 PM" }, "geometry": null },
{ "type": "Feature", "properties": { "Restaurant Name": "LITTLE ATHENS NY", "Time of Submission": "11\/28\/2020 11:32:00 PM" }, "geometry": null },
{ "type": "Feature", "properties": { "Restaurant Name": "zeppole pizzeria", "Time of Submission": "08\/18\/2020 09:47:00 PM" }, "geometry": null },
{ "type": "Feature", "properties": { "Restaurant Name": "Ipoh kitchen Asian cuisine", "Time of Submission": "08\/19\/2020 01:13:00 AM" }, "geometry": { "type": "Point", "coordinates": [ -73.98538, 40.616969 ] } },
{ "type": "Feature", "properties": { "Restaurant Name": "BLUE BOTTLE COFFEE", "Time of Submission": "08\/26\/2020 03:29:00 PM" }, "geometry": null },
{ "type": "Feature", "properties": { "Restaurant Name": "SWEETGREEN", "Time of Submission": "08\/18\/2020 01:19:00 PM" }, "geometry": { "type": "Point", "coordinates": [ -73.992182, 40.690047 ] } },
{ "type": "Feature", "properties": { "Restaurant Name": "FLYING HIPPO BAKERY CAFE", "Time of Submission": "10\/10\/2020 10:30:00 AM" }, "geometry": null },
{ "type": "Feature", "properties": { "Restaurant Name": "Ihop", "Time of Submission": "08\/19\/2020 09:39:00 AM" }, "geometry": { "type": "Point", "coordinates": [ -73.941153, 40.700915 ] } },
{ "type": "Feature", "properties": { "Restaurant Name": "Mulberry & Vine", "Time of Submission": "08\/18\/2020 12:28:00 PM" }, "geometry": { "type": "Point", "coordinates": [ -73.988463, 40.700704 ] } },
{ "type": "Feature", "properties": { "Restaurant Name": "JUST SALAD", "Time of Submission": "08\/31\/2020 06:17:00 PM" }, "geometry": null },
{ "type": "Feature", "properties": { "Restaurant Name": "zeppole pizzeria", "Time of Submission": "08\/18\/2020 09:40:00 PM" }, "geometry": null },
{ "type": "Feature", "properties": { "Restaurant Name": "CHINA GLATT", "Time of Submission": "09\/01\/2020 08:52:00 AM" }, "geometry": null },
{ "type": "Feature", "properties": { "Restaurant Name": "FUNNY BBQ BAR", "Time of Submission": "10\/21\/2020 12:12:00 PM" }, "geometry": null },
{ "type": "Feature", "properties": { "Restaurant Name": "FOREST FOOD", "Time of Submission": "10\/21\/2020 05:29:00 PM" }, "geometry": null },
{ "type": "Feature", "properties": { "Restaurant Name": "Ihop", "Time of Submission": "08\/18\/2020 03:47:00 PM" }, "geometry": { "type": "Point", "coordinates": [ -73.957825, 40.650424 ] } },
{ "type": "Feature", "properties": { "Restaurant Name": "Bien Cuit", "Time of Submission": "08\/18\/2020 03:13:00 PM" }, "geometry": { "type": "Point", "coordinates": [ -73.989868, 40.687628 ] } },
{ "type": "Feature", "properties": { "Restaurant Name": "SWEETGREEN", "Time of Submission": "08\/18\/2020 01:40:00 PM" }, "geometry": { "type": "Point", "coordinates": [ -73.959043, 40.715871 ] } },
{ "type": "Feature", "properties": { "Restaurant Name": "BERGEN BEACH CAFE", "Time of Submission": "10\/06\/2020 09:55:00 AM" }, "geometry": null },
{ "type": "Feature", "properties": { "Restaurant Name": "FLYING HIPPO BAKERY CAFE", "Time of Submission": "10\/10\/2020 10:27:00 AM" }, "geometry": null },
{ "type": "Feature", "properties": { "Restaurant Name": "Ihop", "Time of Submission": "08\/18\/2020 12:43:00 PM" }, "geometry": { "type": "Point", "coordinates": [ -73.983734, 40.68886 ] } },
{ "type": "Feature", "properties": { "Restaurant Name": "Munch", "Time of Submission": "08\/18\/2020 04:15:00 PM" }, "geometry": { "type": "Point", "coordinates": [ -73.965046, 40.624052 ] } },
{ "type": "Feature", "properties": { "Restaurant Name": "BURGIES", "Time of Submission": "11\/30\/2020 04:45:00 PM" }, "geometry": null },
{ "type": "Feature", "properties": { "Restaurant Name": "NEW CHOI FOOK RESTAURANT", "Time of Submission": "08\/20\/2020 03:09:00 PM" }, "geometry": { "type": "Point", "coordinates": [ -73.99709, 40.603896 ] } },
{ "type": "Feature", "properties": { "Restaurant Name": "ICE CREAM HOUSE", "Time of Submission": "08\/20\/2020 02:43:00 PM" }, "geometry": { "type": "Point", "coordinates": [ -73.957842, 40.61826 ] } },
{ "type": "Feature", "properties": { "Restaurant Name": "The Tasty Waffle Company", "Time of Submission": "08\/20\/2020 09:08:00 PM" }, "geometry": { "type": "Point", "coordinates": [ -73.929491, 40.685181 ] } },
{ "type": "Feature", "properties": { "Restaurant Name": "kosher Hut of Brooklyn", "Time of Submission": "08\/21\/2020 10:06:00 AM" }, "geometry": { "type": "Point", "coordinates": [ -73.965438, 40.606205 ] } },
{ "type": "Feature", "properties": { "Restaurant Name": "Absurd Conclave", "Time of Submission": "08\/21\/2020 11:10:00 AM" }, "geometry": { "type": "Point", "coordinates": [ -73.924821, 40.705764 ] } },
{ "type": "Feature", "properties": { "Restaurant Name": "Jing Wei Hotpot inc", "Time of Submission": "08\/22\/2020 12:51:00 AM" }, "geometry": { "type": "Point", "coordinates": [ -74.011342, 40.636562 ] } },
{ "type": "Feature", "properties": { "Restaurant Name": "Joes Pizza", "Time of Submission": "08\/21\/2020 02:30:00 PM" }, "geometry": { "type": "Point", "coordinates": [ -73.958833, 40.716815 ] } },
{ "type": "Feature", "properties": { "Restaurant Name": "Joes Pizza", "Time of Submission": "08\/21\/2020 02:33:00 PM" }, "geometry": { "type": "Point", "coordinates": [ -73.958833, 40.716815 ] } },
{ "type": "Feature", "properties": { "Restaurant Name": "Twist Coffee", "Time of Submission": "08\/21\/2020 02:17:00 PM" }, "geometry": { "type": "Point", "coordinates": [ -74.009412, 40.618408 ] } },
{ "type": "Feature", "properties": { "Restaurant Name": "WING HING SEAFOOD RESTAURANT", "Time of Submission": "08\/21\/2020 02:41:00 PM" }, "geometry": null },
{ "type": "Feature", "properties": { "Restaurant Name": "TW noodle House", "Time of Submission": "08\/24\/2020 12:30:00 AM" }, "geometry": { "type": "Point", "coordinates": [ -74.006122, 40.638788 ] } },
{ "type": "Feature", "properties": { "Restaurant Name": "Bricklyn pizza", "Time of Submission": "08\/21\/2020 11:07:00 PM" }, "geometry": { "type": "Point", "coordinates": [ -73.910826, 40.692573 ] } },
{ "type": "Feature", "properties": { "Restaurant Name": "AMPLE HILLS CREAMERY", "Time of Submission": "09\/01\/2020 04:36:00 PM" }, "geometry": null },
{ "type": "Feature", "properties": { "Restaurant Name": "BKLYN CREPE", "Time of Submission": "09\/01\/2020 11:07:00 PM" }, "geometry": null },
{ "type": "Feature", "properties": { "Restaurant Name": "BABAGHANOJ SPOT", "Time of Submission": "09\/01\/2020 06:32:00 PM" }, "geometry": null },
{ "type": "Feature", "properties": { "Restaurant Name": "MABAT STEAKHOUSE", "Time of Submission": "08\/28\/2020 12:56:00 PM" }, "geometry": null },
{ "type": "Feature", "properties": { "Restaurant Name": "SWEETGREEN", "Time of Submission": "08\/24\/2020 01:28:00 PM" }, "geometry": { "type": "Point", "coordinates": [ -73.989617, 40.702834 ] } },
{ "type": "Feature", "properties": { "Restaurant Name": "ICE CREAM HOUSE ON 36", "Time of Submission": "08\/28\/2020 03:01:00 PM" }, "geometry": null },
{ "type": "Feature", "properties": { "Restaurant Name": "BEST COFFEE SHOP", "Time of Submission": "09\/29\/2020 02:27:00 PM" }, "geometry": null },
{ "type": "Feature", "properties": { "Restaurant Name": "Danny's Pizzeria", "Time of Submission": "08\/24\/2020 04:35:00 PM" }, "geometry": null },
{ "type": "Feature", "properties": { "Restaurant Name": "GOWANUS CORNER CAFE", "Time of Submission": "08\/25\/2020 08:00:00 AM" }, "geometry": null },
{ "type": "Feature", "properties": { "Restaurant Name": "SUBWAY", "Time of Submission": "09\/03\/2020 10:56:00 AM" }, "geometry": null },
{ "type": "Feature", "properties": { "Restaurant Name": "ICE CREAM HOUSE ON AVE M", "Time of Submission": "08\/28\/2020 03:08:00 PM" }, "geometry": null },
{ "type": "Feature", "properties": { "Restaurant Name": "Cozy Royale", "Time of Submission": "08\/24\/2020 09:41:00 PM" }, "geometry": null },
{ "type": "Feature", "properties": { "Restaurant Name": "AMPLE HILLS CREAMERY", "Time of Submission": "09\/02\/2020 12:47:00 PM" }, "geometry": null },
{ "type": "Feature", "properties": { "Restaurant Name": "LUCALI", "Time of Submission": "08\/28\/2020 04:28:00 PM" }, "geometry": null },
{ "type": "Feature", "properties": { "Restaurant Name": "THAI FARM KITCHEN", "Time of Submission": "11\/30\/2020 12:50:00 PM" }, "geometry": null },
{ "type": "Feature", "properties": { "Restaurant Name": "UPRIGHT COFFEE", "Time of Submission": "09\/03\/2020 08:05:00 AM" }, "geometry": null },
{ "type": "Feature", "properties": { "Restaurant Name": "Corto Cafe", "Time of Submission": "08\/24\/2020 03:01:00 PM" }, "geometry": { "type": "Point", "coordinates": [ -73.943152, 40.682567 ] } },
{ "type": "Feature", "properties": { "Restaurant Name": "Kaffeine 231", "Time of Submission": "10\/02\/2020 04:24:00 PM" }, "geometry": null },
{ "type": "Feature", "properties": { "Restaurant Name": "ZERDA", "Time of Submission": "10\/04\/2020 05:19:00 PM" }, "geometry": null },
{ "type": "Feature", "properties": { "Restaurant Name": "MABAT STEAKHOUSE", "Time of Submission": "08\/28\/2020 01:05:00 PM" }, "geometry": null },
{ "type": "Feature", "properties": { "Restaurant Name": "PONTENTIAL VEGETAL (PV HERBS &amp; VITAMINS)", "Time of Submission": "09\/25\/2020 10:10:00 PM" }, "geometry": null },
{ "type": "Feature", "properties": { "Restaurant Name": "ANTOJITOS DELI FOOD", "Time of Submission": "09\/06\/2020 06:44:00 PM" }, "geometry": null },
{ "type": "Feature", "properties": { "Restaurant Name": "BAY RIDGE CAFE", "Time of Submission": "12\/28\/2020 03:20:00 PM" }, "geometry": null },
{ "type": "Feature", "properties": { "Restaurant Name": "PONTENTIAL VEGETAL (PV HERBS &amp; VITAMINS)", "Time of Submission": "09\/25\/2020 10:07:00 PM" }, "geometry": null },
{ "type": "Feature", "properties": { "Restaurant Name": "POTENTIAL VEGETAL (PV HERBS &amp; VITAMINS) INC", "Time of Submission": "09\/25\/2020 11:08:00 PM" }, "geometry": null },
{ "type": "Feature", "properties": { "Restaurant Name": "Fabio pizza and restaurant", "Time of Submission": "08\/06\/2020 04:19:00 PM" }, "geometry": { "type": "Point", "coordinates": [ -73.941228, 40.72222 ] } },
{ "type": "Feature", "properties": { "Restaurant Name": "Mille-feuille Bakery", "Time of Submission": "08\/13\/2020 12:40:00 PM" }, "geometry": { "type": "Point", "coordinates": [ -73.968916, 40.677535 ] } },
{ "type": "Feature", "properties": { "Restaurant Name": "Reazon Cafe & Lounge", "Time of Submission": "08\/06\/2020 07:04:00 PM" }, "geometry": { "type": "Point", "coordinates": [ -73.962582, 40.611126 ] } },
{ "type": "Feature", "properties": { "Restaurant Name": "Tong", "Time of Submission": "08\/09\/2020 03:17:00 PM" }, "geometry": { "type": "Point", "coordinates": [ -73.920497, 40.707742 ] } },
{ "type": "Feature", "properties": { "Restaurant Name": "Pollo Campero", "Time of Submission": "08\/10\/2020 06:40:00 PM" }, "geometry": { "type": "Point", "coordinates": [ -74.007575, 40.647755 ] } },
{ "type": "Feature", "properties": { "Restaurant Name": "OCEAN TREASURES", "Time of Submission": "08\/29\/2020 01:41:00 PM" }, "geometry": null },
{ "type": "Feature", "properties": { "Restaurant Name": "HUNGRY GHOST COFFEE", "Time of Submission": "09\/27\/2020 11:42:00 AM" }, "geometry": null },
{ "type": "Feature", "properties": { "Restaurant Name": "Momoï¿½s Mediterranean Grill", "Time of Submission": "08\/14\/2020 08:16:00 AM" }, "geometry": null },
{ "type": "Feature", "properties": { "Restaurant Name": "Walter's", "Time of Submission": "08\/13\/2020 02:30:00 PM" }, "geometry": { "type": "Point", "coordinates": [ -73.973273, 40.689618 ] } },
{ "type": "Feature", "properties": { "Restaurant Name": "MR.BUN", "Time of Submission": "09\/05\/2020 11:17:00 AM" }, "geometry": null },
{ "type": "Feature", "properties": { "Restaurant Name": "THE BAGEL MARKET", "Time of Submission": "08\/12\/2020 10:24:00 AM" }, "geometry": { "type": "Point", "coordinates": [ -73.975724, 40.674097 ] } },
{ "type": "Feature", "properties": { "Restaurant Name": "Isaac's Coffee Shop Inc.", "Time of Submission": "08\/05\/2020 01:12:00 PM" }, "geometry": { "type": "Point", "coordinates": [ -73.946274, 40.624409 ] } },
{ "type": "Feature", "properties": { "Restaurant Name": "Sungai Malaysian Cuisine", "Time of Submission": "08\/04\/2020 01:54:00 PM" }, "geometry": { "type": "Point", "coordinates": [ -73.988588, 40.620719 ] } },
{ "type": "Feature", "properties": { "Restaurant Name": "LA BRUSCHETTA RESTAURANT", "Time of Submission": "09\/04\/2020 06:47:00 PM" }, "geometry": null },
{ "type": "Feature", "properties": { "Restaurant Name": "El Morro Tecleno", "Time of Submission": "08\/04\/2020 06:37:00 PM" }, "geometry": null },
{ "type": "Feature", "properties": { "Restaurant Name": "Royal Falafel and shawarma", "Time of Submission": "08\/08\/2020 02:02:00 PM" }, "geometry": { "type": "Point", "coordinates": [ -73.950332, 40.7291 ] } },
{ "type": "Feature", "properties": { "Restaurant Name": "Konditori", "Time of Submission": "08\/14\/2020 07:06:00 AM" }, "geometry": null },
{ "type": "Feature", "properties": { "Restaurant Name": "WASHINGTON AVENUE CAFE", "Time of Submission": "10\/21\/2020 12:00:00 PM" }, "geometry": null },
{ "type": "Feature", "properties": { "Restaurant Name": "TASTE YUMMY BK INC", "Time of Submission": "08\/06\/2020 04:12:00 PM" }, "geometry": { "type": "Point", "coordinates": [ -74.002551, 40.643144 ] } },
{ "type": "Feature", "properties": { "Restaurant Name": "BAY RIDGE CAFE", "Time of Submission": "12\/28\/2020 03:37:00 PM" }, "geometry": null },
{ "type": "Feature", "properties": { "Restaurant Name": "TASTY BAKERY", "Time of Submission": "10\/15\/2020 09:14:00 PM" }, "geometry": null },
{ "type": "Feature", "properties": { "Restaurant Name": "Grill n Dine", "Time of Submission": "08\/05\/2020 07:09:00 PM" }, "geometry": { "type": "Point", "coordinates": [ -73.968527, 40.638312 ] } },
{ "type": "Feature", "properties": { "Restaurant Name": "PLG COFFEE HOUSE AND TAVERN", "Time of Submission": "09\/28\/2020 10:43:00 AM" }, "geometry": null },
{ "type": "Feature", "properties": { "Restaurant Name": "Grill Point", "Time of Submission": "08\/06\/2020 03:41:00 PM" }, "geometry": { "type": "Point", "coordinates": [ -73.961659, 40.607886 ] } },
{ "type": "Feature", "properties": { "Restaurant Name": "Tea and Burger", "Time of Submission": "08\/08\/2020 01:18:00 PM" }, "geometry": { "type": "Point", "coordinates": [ -73.999308, 40.61809 ] } },
{ "type": "Feature", "properties": { "Restaurant Name": "Choo Choo cuts caffe", "Time of Submission": "08\/06\/2020 02:50:00 PM" }, "geometry": { "type": "Point", "coordinates": [ -73.993671, 40.694628 ] } },
{ "type": "Feature", "properties": { "Restaurant Name": "TAKE YOUR HAND BROOKLYN INC", "Time of Submission": "08\/08\/2020 01:41:00 PM" }, "geometry": null },
{ "type": "Feature", "properties": { "Restaurant Name": "Loving Hut", "Time of Submission": "08\/11\/2020 06:53:00 PM" }, "geometry": { "type": "Point", "coordinates": [ -73.940977, 40.712511 ] } },
{ "type": "Feature", "properties": { "Restaurant Name": "Korean tofu house", "Time of Submission": "08\/05\/2020 08:23:00 PM" }, "geometry": { "type": "Point", "coordinates": [ -73.978502, 40.666602 ] } },
{ "type": "Feature", "properties": { "Restaurant Name": "ciccios", "Time of Submission": "08\/11\/2020 07:52:00 PM" }, "geometry": { "type": "Point", "coordinates": [ -73.976317, 40.596648 ] } },
{ "type": "Feature", "properties": { "Restaurant Name": "PLENTY'S PARADISE", "Time of Submission": "09\/23\/2020 02:37:00 PM" }, "geometry": null },
{ "type": "Feature", "properties": { "Restaurant Name": "Love and Dough", "Time of Submission": "08\/13\/2020 02:31:00 PM" }, "geometry": { "type": "Point", "coordinates": [ -73.986681, 40.702763 ] } },
{ "type": "Feature", "properties": { "Restaurant Name": "NYCS FRIED CHICKEN", "Time of Submission": "10\/02\/2020 06:21:00 PM" }, "geometry": null },
{ "type": "Feature", "properties": { "Restaurant Name": "Meltingpot Cusine", "Time of Submission": "08\/08\/2020 08:41:00 AM" }, "geometry": { "type": "Point", "coordinates": [ -73.943727, 40.701819 ] } },
{ "type": "Feature", "properties": { "Restaurant Name": "R&D Foods", "Time of Submission": "08\/06\/2020 03:21:00 PM" }, "geometry": { "type": "Point", "coordinates": [ -73.968641, 40.678303 ] } },
{ "type": "Feature", "properties": { "Restaurant Name": "Bay Parkway Seafood Palace Inc", "Time of Submission": "08\/13\/2020 04:29:00 PM" }, "geometry": { "type": "Point", "coordinates": [ -73.994325, 40.602252 ] } },
{ "type": "Feature", "properties": { "Restaurant Name": "Tacos California Reencuentro Corp", "Time of Submission": "08\/06\/2020 06:24:00 PM" }, "geometry": { "type": "Point", "coordinates": [ -74.008151, 40.647203 ] } },
{ "type": "Feature", "properties": { "Restaurant Name": "Fish and Beef", "Time of Submission": "08\/12\/2020 07:48:00 PM" }, "geometry": { "type": "Point", "coordinates": [ -74.007217, 40.641209 ] } },
{ "type": "Feature", "properties": { "Restaurant Name": "Xochil Pizza Corp", "Time of Submission": "08\/07\/2020 01:43:00 PM" }, "geometry": { "type": "Point", "coordinates": [ -74.008216, 40.64714 ] } },
{ "type": "Feature", "properties": { "Restaurant Name": "Bakestone Bakery", "Time of Submission": "08\/10\/2020 12:54:00 PM" }, "geometry": { "type": "Point", "coordinates": [ -73.945478, 40.725499 ] } },
{ "type": "Feature", "properties": { "Restaurant Name": "McDonald's", "Time of Submission": "08\/07\/2020 11:32:00 AM" }, "geometry": { "type": "Point", "coordinates": [ -73.958986, 40.708819 ] } },
{ "type": "Feature", "properties": { "Restaurant Name": "Katie O's", "Time of Submission": "08\/09\/2020 01:14:00 PM" }, "geometry": { "type": "Point", "coordinates": [ -73.947491, 40.661758 ] } },
{ "type": "Feature", "properties": { "Restaurant Name": "Rico Pollo 3", "Time of Submission": "08\/07\/2020 01:58:00 PM" }, "geometry": { "type": "Point", "coordinates": [ -74.007575, 40.64773 ] } },
{ "type": "Feature", "properties": { "Restaurant Name": "Taqueria La Nortena", "Time of Submission": "08\/12\/2020 02:46:00 PM" }, "geometry": { "type": "Point", "coordinates": [ -73.951338, 40.724755 ] } },
{ "type": "Feature", "properties": { "Restaurant Name": "luv.n.oven pizzeria", "Time of Submission": "08\/07\/2020 10:22:00 PM" }, "geometry": { "type": "Point", "coordinates": [ -73.977669, 40.689787 ] } },
{ "type": "Feature", "properties": { "Restaurant Name": "SUBWAY", "Time of Submission": "08\/11\/2020 02:52:00 PM" }, "geometry": { "type": "Point", "coordinates": [ -74.019358, 40.646741 ] } },
{ "type": "Feature", "properties": { "Restaurant Name": "Crisp", "Time of Submission": "12\/11\/2020 03:52:00 PM" }, "geometry": null },
{ "type": "Feature", "properties": { "Restaurant Name": "Milk Bar", "Time of Submission": "08\/06\/2020 02:18:00 PM" }, "geometry": { "type": "Point", "coordinates": [ -73.968822, 40.677798 ] } },
{ "type": "Feature", "properties": { "Restaurant Name": "Bread Brothers Bagel Cafe", "Time of Submission": "08\/13\/2020 09:52:00 AM" }, "geometry": { "type": "Point", "coordinates": [ -73.939942, 40.708215 ] } },
{ "type": "Feature", "properties": { "Restaurant Name": "Love and Dough", "Time of Submission": "08\/13\/2020 02:34:00 PM" }, "geometry": { "type": "Point", "coordinates": [ -73.986681, 40.702763 ] } },
{ "type": "Feature", "properties": { "Restaurant Name": "gelateria gentile", "Time of Submission": "08\/13\/2020 02:48:00 PM" }, "geometry": { "type": "Point", "coordinates": [ -73.963934, 40.716243 ] } },
{ "type": "Feature", "properties": { "Restaurant Name": "Ecuapollos Bar restaurant", "Time of Submission": "08\/14\/2020 07:20:00 AM" }, "geometry": { "type": "Point", "coordinates": [ -73.926817, 40.697915 ] } },
{ "type": "Feature", "properties": { "Restaurant Name": "Golden Imperial Palace", "Time of Submission": "08\/11\/2020 05:18:00 PM" }, "geometry": { "type": "Point", "coordinates": [ -74.014542, 40.636638 ] } },
{ "type": "Feature", "properties": { "Restaurant Name": "McDonald's", "Time of Submission": "08\/07\/2020 11:34:00 AM" }, "geometry": { "type": "Point", "coordinates": [ -73.940557, 40.72223 ] } },
{ "type": "Feature", "properties": { "Restaurant Name": "Moms Ramen", "Time of Submission": "08\/06\/2020 04:42:00 PM" }, "geometry": { "type": "Point", "coordinates": [ -73.957704, 40.71136 ] } },
{ "type": "Feature", "properties": { "Restaurant Name": "Cafe La Notte II", "Time of Submission": "08\/06\/2020 03:15:00 PM" }, "geometry": { "type": "Point", "coordinates": [ -73.926952, 40.594464 ] } },
{ "type": "Feature", "properties": { "Restaurant Name": "Cafe La Notte", "Time of Submission": "08\/06\/2020 03:08:00 PM" }, "geometry": { "type": "Point", "coordinates": [ -73.985384, 40.597418 ] } },
{ "type": "Feature", "properties": { "Restaurant Name": "Naidre's Cafe", "Time of Submission": "08\/11\/2020 07:21:00 PM" }, "geometry": { "type": "Point", "coordinates": [ -73.982914, 40.665312 ] } },
{ "type": "Feature", "properties": { "Restaurant Name": "Grab & Go Cafe", "Time of Submission": "08\/13\/2020 10:26:00 AM" }, "geometry": { "type": "Point", "coordinates": [ -74.016867, 40.63991 ] } },
{ "type": "Feature", "properties": { "Restaurant Name": "Playground Coffee Shop", "Time of Submission": "08\/03\/2020 01:12:00 PM" }, "geometry": { "type": "Point", "coordinates": [ -73.954571, 40.686623 ] } },
{ "type": "Feature", "properties": { "Restaurant Name": "east wind snack shop", "Time of Submission": "08\/04\/2020 02:40:00 AM" }, "geometry": { "type": "Point", "coordinates": [ -73.992829, 40.683223 ] } },
{ "type": "Feature", "properties": { "Restaurant Name": "Cholula Deli", "Time of Submission": "08\/08\/2020 02:27:00 PM" }, "geometry": { "type": "Point", "coordinates": [ -73.916631, 40.698995 ] } },
{ "type": "Feature", "properties": { "Restaurant Name": "Kushi Izakaya Restaurant, Inc", "Time of Submission": "08\/02\/2020 06:05:00 AM" }, "geometry": { "type": "Point", "coordinates": [ -73.999582, 40.605392 ] } },
{ "type": "Feature", "properties": { "Restaurant Name": "TIN CUP CAFE", "Time of Submission": "12\/16\/2020 10:04:00 AM" }, "geometry": null },
{ "type": "Feature", "properties": { "Restaurant Name": "Poke Zest", "Time of Submission": "08\/12\/2020 01:34:00 PM" }, "geometry": { "type": "Point", "coordinates": [ -73.950852, 40.723857 ] } },
{ "type": "Feature", "properties": { "Restaurant Name": "Playground Coffee Shop", "Time of Submission": "08\/03\/2020 01:06:00 PM" }, "geometry": { "type": "Point", "coordinates": [ -73.954571, 40.686623 ] } },
{ "type": "Feature", "properties": { "Restaurant Name": "TOM AND JOANS WHISKEY BAR", "Time of Submission": "10\/12\/2020 03:51:00 PM" }, "geometry": null },
{ "type": "Feature", "properties": { "Restaurant Name": "Aug-00", "Time of Submission": "08\/06\/2020 11:05:00 AM" }, "geometry": { "type": "Point", "coordinates": [ -73.959685, 40.691684 ] } },
{ "type": "Feature", "properties": { "Restaurant Name": "HOUND'S TREE WINES", "Time of Submission": "09\/10\/2020 01:29:00 AM" }, "geometry": null },
{ "type": "Feature", "properties": { "Restaurant Name": "EMMY SQUARED", "Time of Submission": "09\/16\/2020 03:55:00 PM" }, "geometry": null },
{ "type": "Feature", "properties": { "Restaurant Name": "MINNOWS", "Time of Submission": "09\/03\/2020 09:28:00 PM" }, "geometry": null },
{ "type": "Feature", "properties": { "Restaurant Name": "Dinosaur BBQ", "Time of Submission": "08\/14\/2020 11:16:00 AM" }, "geometry": { "type": "Point", "coordinates": [ -73.984, 40.677774 ] } },
{ "type": "Feature", "properties": { "Restaurant Name": "SEAFOOD ISLAND", "Time of Submission": "10\/26\/2020 10:22:00 PM" }, "geometry": null },
{ "type": "Feature", "properties": { "Restaurant Name": "One Elleven", "Time of Submission": "11\/24\/2020 06:56:00 PM" }, "geometry": null },
{ "type": "Feature", "properties": { "Restaurant Name": "BOAT BAR", "Time of Submission": "11\/09\/2020 03:57:00 PM" }, "geometry": null },
{ "type": "Feature", "properties": { "Restaurant Name": "SCALINO G.P.", "Time of Submission": "08\/10\/2020 06:31:00 PM" }, "geometry": { "type": "Point", "coordinates": [ -73.951273, 40.724599 ] } },
{ "type": "Feature", "properties": { "Restaurant Name": "Amorina, Cucina Rustica", "Time of Submission": "08\/07\/2020 01:21:00 PM" }, "geometry": { "type": "Point", "coordinates": [ -73.968934, 40.677488 ] } },
{ "type": "Feature", "properties": { "Restaurant Name": "Juliana's", "Time of Submission": "08\/04\/2020 10:04:00 PM" }, "geometry": { "type": "Point", "coordinates": [ -73.993595, 40.702574 ] } },
{ "type": "Feature", "properties": { "Restaurant Name": "THE BROOKLYN INN", "Time of Submission": "09\/29\/2020 11:48:00 AM" }, "geometry": null },
{ "type": "Feature", "properties": { "Restaurant Name": "THE BARLOW", "Time of Submission": "08\/13\/2020 10:23:00 AM" }, "geometry": { "type": "Point", "coordinates": [ -73.962629, 40.675406 ] } },
{ "type": "Feature", "properties": { "Restaurant Name": "Bar Bruno", "Time of Submission": "08\/07\/2020 05:08:00 PM" }, "geometry": { "type": "Point", "coordinates": [ -73.999784, 40.683374 ] } },
{ "type": "Feature", "properties": { "Restaurant Name": "TROOST", "Time of Submission": "08\/03\/2020 11:07:00 AM" }, "geometry": { "type": "Point", "coordinates": [ -73.954814, 40.733499 ] } },
{ "type": "Feature", "properties": { "Restaurant Name": "BONAO BAR AND GRILL", "Time of Submission": "09\/29\/2020 03:33:00 PM" }, "geometry": null },
{ "type": "Feature", "properties": { "Restaurant Name": "THE LITTLE SWEET CAFE", "Time of Submission": "09\/24\/2020 02:27:00 PM" }, "geometry": null },
{ "type": "Feature", "properties": { "Restaurant Name": "LA PARADA RESTAURANT", "Time of Submission": "09\/02\/2020 12:56:00 PM" }, "geometry": null },
{ "type": "Feature", "properties": { "Restaurant Name": "ZURILEE", "Time of Submission": "08\/31\/2020 01:58:00 PM" }, "geometry": null },
{ "type": "Feature", "properties": { "Restaurant Name": "61 LOCAL", "Time of Submission": "10\/13\/2020 06:22:00 PM" }, "geometry": null },
{ "type": "Feature", "properties": { "Restaurant Name": "Hotel Delmano", "Time of Submission": "08\/01\/2020 03:43:00 PM" }, "geometry": { "type": "Point", "coordinates": [ -73.957918, 40.719663 ] } },
{ "type": "Feature", "properties": { "Restaurant Name": "Bathhouse", "Time of Submission": "08\/03\/2020 03:07:00 PM" }, "geometry": { "type": "Point", "coordinates": [ -73.957802, 40.720662 ] } },
{ "type": "Feature", "properties": { "Restaurant Name": "Nourish Thai", "Time of Submission": "08\/03\/2020 06:19:00 PM" }, "geometry": { "type": "Point", "coordinates": [ -73.968714, 40.678042 ] } },
{ "type": "Feature", "properties": { "Restaurant Name": "RULE OF THIRDS", "Time of Submission": "08\/27\/2020 01:45:00 PM" }, "geometry": null },
{ "type": "Feature", "properties": { "Restaurant Name": "Honey Badger Restaurant", "Time of Submission": "08\/04\/2020 06:46:00 PM" }, "geometry": { "type": "Point", "coordinates": [ -73.959723, 40.658124 ] } },
{ "type": "Feature", "properties": { "Restaurant Name": "OCEAN VIEW CAFE", "Time of Submission": "10\/22\/2020 08:11:00 PM" }, "geometry": null },
{ "type": "Feature", "properties": { "Restaurant Name": "BierWax", "Time of Submission": "08\/04\/2020 09:25:00 PM" }, "geometry": { "type": "Point", "coordinates": [ -73.968046, 40.679966 ] } },
{ "type": "Feature", "properties": { "Restaurant Name": "HUDSON RESTAURANT", "Time of Submission": "09\/30\/2020 10:17:00 AM" }, "geometry": null },
{ "type": "Feature", "properties": { "Restaurant Name": "Avere Ristorante", "Time of Submission": "08\/02\/2020 12:34:00 PM" }, "geometry": { "type": "Point", "coordinates": [ -73.984386, 40.691454 ] } },
{ "type": "Feature", "properties": { "Restaurant Name": "Cataldoï¿½s restaurant", "Time of Submission": "08\/04\/2020 08:23:00 PM" }, "geometry": { "type": "Point", "coordinates": [ -73.968024, 40.680021 ] } },
{ "type": "Feature", "properties": { "Restaurant Name": "Paper Rain", "Time of Submission": "08\/16\/2020 01:59:00 PM" }, "geometry": { "type": "Point", "coordinates": [ -73.891967, 40.676305 ] } },
{ "type": "Feature", "properties": { "Restaurant Name": "Midnights", "Time of Submission": "08\/06\/2020 09:29:00 PM" }, "geometry": null },
{ "type": "Feature", "properties": { "Restaurant Name": "NEW RUAN'S RESTAURANT CORP", "Time of Submission": "08\/05\/2020 08:56:00 PM" }, "geometry": { "type": "Point", "coordinates": [ -73.999132, 40.605148 ] } },
{ "type": "Feature", "properties": { "Restaurant Name": "BLACK MOUNTAIN", "Time of Submission": "10\/07\/2020 10:03:00 AM" }, "geometry": null },
{ "type": "Feature", "properties": { "Restaurant Name": "Kasumi Sushi & BBQ Restaurant", "Time of Submission": "08\/11\/2020 04:11:00 PM" }, "geometry": { "type": "Point", "coordinates": [ -74.001008, 40.606257 ] } },
{ "type": "Feature", "properties": { "Restaurant Name": "Quetzal Restaurant & Bakery Inc", "Time of Submission": "08\/04\/2020 07:16:00 PM" }, "geometry": { "type": "Point", "coordinates": [ -73.992032, 40.620941 ] } },
{ "type": "Feature", "properties": { "Restaurant Name": "AJIHEI", "Time of Submission": "12\/12\/2020 02:28:00 PM" }, "geometry": null },
{ "type": "Feature", "properties": { "Restaurant Name": "Farewell", "Time of Submission": "08\/19\/2020 07:39:00 PM" }, "geometry": { "type": "Point", "coordinates": [ -73.929303, 40.700033 ] } },
{ "type": "Feature", "properties": { "Restaurant Name": "Fin Du Monde", "Time of Submission": "11\/30\/2020 04:33:00 PM" }, "geometry": null },
{ "type": "Feature", "properties": { "Restaurant Name": "EL TIPICO RESTAURANT", "Time of Submission": "08\/27\/2020 07:34:00 PM" }, "geometry": null },
{ "type": "Feature", "properties": { "Restaurant Name": "A-Pou's Taste", "Time of Submission": "08\/07\/2020 02:51:00 PM" }, "geometry": { "type": "Point", "coordinates": [ -73.936027, 40.713085 ] } },
{ "type": "Feature", "properties": { "Restaurant Name": "la villa pizza", "Time of Submission": "08\/07\/2020 06:06:00 PM" }, "geometry": { "type": "Point", "coordinates": [ -73.981881, 40.674461 ] } },
{ "type": "Feature", "properties": { "Restaurant Name": "Chingoo restaurant", "Time of Submission": "08\/15\/2020 03:36:00 PM" }, "geometry": { "type": "Point", "coordinates": [ -73.944595, 40.715768 ] } },
{ "type": "Feature", "properties": { "Restaurant Name": "CASA AZUL", "Time of Submission": "09\/01\/2020 04:14:00 PM" }, "geometry": null },
{ "type": "Feature", "properties": { "Restaurant Name": "GOLD STAR BEER COUNTER", "Time of Submission": "09\/03\/2020 11:12:00 AM" }, "geometry": null },
{ "type": "Feature", "properties": { "Restaurant Name": "Avere Ristorante", "Time of Submission": "08\/02\/2020 12:50:00 PM" }, "geometry": { "type": "Point", "coordinates": [ -73.984386, 40.691454 ] } },
{ "type": "Feature", "properties": { "Restaurant Name": "ASKA", "Time of Submission": "11\/05\/2020 11:33:00 AM" }, "geometry": null },
{ "type": "Feature", "properties": { "Restaurant Name": "OCEAN VIEW CAFE", "Time of Submission": "09\/14\/2020 01:14:00 PM" }, "geometry": null },
{ "type": "Feature", "properties": { "Restaurant Name": "BOOBIETRAP", "Time of Submission": "10\/01\/2020 12:37:00 PM" }, "geometry": null },
{ "type": "Feature", "properties": { "Restaurant Name": "LELAND EATING &amp; DRINKING HOUSE", "Time of Submission": "10\/14\/2020 12:53:00 PM" }, "geometry": null },
{ "type": "Feature", "properties": { "Restaurant Name": "HASANI", "Time of Submission": "08\/17\/2020 04:18:00 PM" }, "geometry": { "type": "Point", "coordinates": [ -73.987582, 40.703056 ] } },
{ "type": "Feature", "properties": { "Restaurant Name": "Maison Yaki", "Time of Submission": "08\/07\/2020 01:24:00 PM" }, "geometry": { "type": "Point", "coordinates": [ -73.968952, 40.677439 ] } },
{ "type": "Feature", "properties": { "Restaurant Name": "GUACUCO", "Time of Submission": "08\/28\/2020 07:18:00 PM" }, "geometry": null },
{ "type": "Feature", "properties": { "Restaurant Name": "Nourish Thai", "Time of Submission": "08\/07\/2020 02:35:00 PM" }, "geometry": { "type": "Point", "coordinates": [ -73.968714, 40.678042 ] } },
{ "type": "Feature", "properties": { "Restaurant Name": "Pizzatown", "Time of Submission": "08\/08\/2020 12:38:00 PM" }, "geometry": { "type": "Point", "coordinates": [ -73.977993, 40.68004 ] } },
{ "type": "Feature", "properties": { "Restaurant Name": "VINEAPPLE", "Time of Submission": "12\/26\/2020 11:57:00 AM" }, "geometry": null },
{ "type": "Feature", "properties": { "Restaurant Name": "U-gu", "Time of Submission": "08\/11\/2020 09:21:00 PM" }, "geometry": { "type": "Point", "coordinates": [ -73.962767, 40.69379 ] } },
{ "type": "Feature", "properties": { "Restaurant Name": "Salt + Charcoal", "Time of Submission": "08\/13\/2020 03:53:00 PM" }, "geometry": { "type": "Point", "coordinates": [ -73.961504, 40.714601 ] } },
{ "type": "Feature", "properties": { "Restaurant Name": "Boubou Restaurant Corp", "Time of Submission": "08\/18\/2020 03:11:00 PM" }, "geometry": { "type": "Point", "coordinates": [ -74.028036, 40.622596 ] } },
{ "type": "Feature", "properties": { "Restaurant Name": "GERSI", "Time of Submission": "09\/18\/2020 12:11:00 AM" }, "geometry": null },
{ "type": "Feature", "properties": { "Restaurant Name": "ENDSWELL BAR &amp; BISTRO", "Time of Submission": "12\/15\/2020 02:46:00 PM" }, "geometry": null },
{ "type": "Feature", "properties": { "Restaurant Name": "Branded Saloon", "Time of Submission": "08\/05\/2020 01:45:00 AM" }, "geometry": { "type": "Point", "coordinates": [ -73.968262, 40.679286 ] } },
{ "type": "Feature", "properties": { "Restaurant Name": "DINOSAUR BAR-B-QUE", "Time of Submission": "11\/12\/2020 12:03:00 PM" }, "geometry": null },
{ "type": "Feature", "properties": { "Restaurant Name": "Pizzatown", "Time of Submission": "08\/23\/2020 12:54:00 PM" }, "geometry": null },
{ "type": "Feature", "properties": { "Restaurant Name": "weather up", "Time of Submission": "08\/07\/2020 11:46:00 AM" }, "geometry": null },
{ "type": "Feature", "properties": { "Restaurant Name": "The Fly", "Time of Submission": "08\/06\/2020 02:55:00 PM" }, "geometry": { "type": "Point", "coordinates": [ -73.958638, 40.682069 ] } },
{ "type": "Feature", "properties": { "Restaurant Name": "Island Cz Lounge", "Time of Submission": "08\/18\/2020 06:40:00 PM" }, "geometry": { "type": "Point", "coordinates": [ -73.928857, 40.637375 ] } },
{ "type": "Feature", "properties": { "Restaurant Name": "The King of Fish", "Time of Submission": "08\/01\/2020 06:05:00 PM" }, "geometry": { "type": "Point", "coordinates": [ -74.007542, 40.647761 ] } },
{ "type": "Feature", "properties": { "Restaurant Name": "IZZY'S BBQ SMOKEHOUSE", "Time of Submission": "08\/26\/2020 03:23:00 PM" }, "geometry": null },
{ "type": "Feature", "properties": { "Restaurant Name": "ST MAZIE", "Time of Submission": "09\/18\/2020 06:02:00 PM" }, "geometry": null },
{ "type": "Feature", "properties": { "Restaurant Name": "Faun", "Time of Submission": "08\/05\/2020 11:28:00 AM" }, "geometry": { "type": "Point", "coordinates": [ -73.968681, 40.678191 ] } },
{ "type": "Feature", "properties": { "Restaurant Name": "Mallys'DELI Grocery CORP", "Time of Submission": "08\/11\/2020 01:21:00 PM" }, "geometry": { "type": "Point", "coordinates": [ -73.92663, 40.703528 ] } },
{ "type": "Feature", "properties": { "Restaurant Name": "FREDDY'S BAR", "Time of Submission": "12\/03\/2020 01:49:00 PM" }, "geometry": null },
{ "type": "Feature", "properties": { "Restaurant Name": "GENTLE PERCH", "Time of Submission": "10\/05\/2020 06:58:00 PM" }, "geometry": null },
{ "type": "Feature", "properties": { "Restaurant Name": "GEMELLI", "Time of Submission": "08\/13\/2020 03:27:00 PM" }, "geometry": { "type": "Point", "coordinates": [ -73.920497, 40.707742 ] } },
{ "type": "Feature", "properties": { "Restaurant Name": "Zaytoons", "Time of Submission": "08\/21\/2020 04:18:00 PM" }, "geometry": null },
{ "type": "Feature", "properties": { "Restaurant Name": "PLG Social LLC", "Time of Submission": "08\/19\/2020 05:52:00 PM" }, "geometry": { "type": "Point", "coordinates": [ -73.960555, 40.659579 ] } },
{ "type": "Feature", "properties": { "Restaurant Name": "The Custom House", "Time of Submission": "08\/01\/2020 03:14:00 PM" }, "geometry": null },
{ "type": "Feature", "properties": { "Restaurant Name": "Triangle Apple, LLC dba Applebee's Neighborhood Grill & Bar", "Time of Submission": "08\/07\/2020 04:54:00 PM" }, "geometry": { "type": "Point", "coordinates": [ -73.947487, 40.631039 ] } },
{ "type": "Feature", "properties": { "Restaurant Name": "SAVANNAH CAFE", "Time of Submission": "08\/02\/2020 05:18:00 PM" }, "geometry": { "type": "Point", "coordinates": [ -73.930395, 40.676346 ] } },
{ "type": "Feature", "properties": { "Restaurant Name": "THE WHISKEY BROOKLYN", "Time of Submission": "10\/13\/2020 06:59:00 PM" }, "geometry": null },
{ "type": "Feature", "properties": { "Restaurant Name": "The Fly", "Time of Submission": "08\/06\/2020 03:02:00 PM" }, "geometry": { "type": "Point", "coordinates": [ -73.958638, 40.682069 ] } },
{ "type": "Feature", "properties": { "Restaurant Name": "The Coyote Club", "Time of Submission": "08\/03\/2020 04:30:00 PM" }, "geometry": { "type": "Point", "coordinates": [ -73.942043, 40.688589 ] } },
{ "type": "Feature", "properties": { "Restaurant Name": "THE NEW SANTIAGO RESTAURANT CORP.", "Time of Submission": "08\/21\/2020 05:29:00 PM" }, "geometry": { "type": "Point", "coordinates": [ -73.869787, 40.684327 ] } },
{ "type": "Feature", "properties": { "Restaurant Name": "Lalou", "Time of Submission": "08\/05\/2020 11:29:00 AM" }, "geometry": null },
{ "type": "Feature", "properties": { "Restaurant Name": "ALTA CALIDAD", "Time of Submission": "08\/07\/2020 10:14:00 AM" }, "geometry": { "type": "Point", "coordinates": [ -73.968006, 40.680076 ] } },
{ "type": "Feature", "properties": { "Restaurant Name": "Winona's", "Time of Submission": "10\/17\/2020 09:10:00 PM" }, "geometry": null },
{ "type": "Feature", "properties": { "Restaurant Name": "MEMORIES BAR SHEVROJA", "Time of Submission": "08\/25\/2020 11:28:00 AM" }, "geometry": null },
{ "type": "Feature", "properties": { "Restaurant Name": "ETIQUETTE", "Time of Submission": "09\/25\/2020 05:08:00 PM" }, "geometry": null },
{ "type": "Feature", "properties": { "Restaurant Name": "RAMONA", "Time of Submission": "10\/22\/2020 01:24:00 PM" }, "geometry": null },
{ "type": "Feature", "properties": { "Restaurant Name": "Bogota Latin Bistro", "Time of Submission": "08\/14\/2020 03:45:00 PM" }, "geometry": { "type": "Point", "coordinates": [ -73.97923, 40.678212 ] } },
{ "type": "Feature", "properties": { "Restaurant Name": "Chuko", "Time of Submission": "08\/04\/2020 11:34:00 AM" }, "geometry": { "type": "Point", "coordinates": [ -73.96771, 40.680839 ] } },
{ "type": "Feature", "properties": { "Restaurant Name": "THE CRABBY SHACK", "Time of Submission": "08\/26\/2020 10:14:00 PM" }, "geometry": null },
{ "type": "Feature", "properties": { "Restaurant Name": "PAULIE GEE SLICE JOINT", "Time of Submission": "11\/20\/2020 03:36:00 PM" }, "geometry": null },
{ "type": "Feature", "properties": { "Restaurant Name": "New Beach BAr LLC", "Time of Submission": "08\/10\/2020 10:49:00 AM" }, "geometry": { "type": "Point", "coordinates": [ -73.92507, 40.592772 ] } },
{ "type": "Feature", "properties": { "Restaurant Name": "LILIA", "Time of Submission": "10\/19\/2020 02:41:00 PM" }, "geometry": null },
{ "type": "Feature", "properties": { "Restaurant Name": "MIDWAY BAR", "Time of Submission": "11\/05\/2020 03:26:00 PM" }, "geometry": null },
{ "type": "Feature", "properties": { "Restaurant Name": "THE WINSLOW", "Time of Submission": "08\/13\/2020 12:55:00 PM" }, "geometry": { "type": "Point", "coordinates": [ -73.962629, 40.675406 ] } },
{ "type": "Feature", "properties": { "Restaurant Name": "BOLERO", "Time of Submission": "08\/25\/2020 05:21:00 PM" }, "geometry": null },
{ "type": "Feature", "properties": { "Restaurant Name": "UDOM THAI", "Time of Submission": "09\/11\/2020 06:06:00 PM" }, "geometry": null },
{ "type": "Feature", "properties": { "Restaurant Name": "THE GRADIENT", "Time of Submission": "08\/26\/2020 03:24:00 PM" }, "geometry": null },
{ "type": "Feature", "properties": { "Restaurant Name": "VSPOT", "Time of Submission": "08\/15\/2020 08:05:00 AM" }, "geometry": null },
{ "type": "Feature", "properties": { "Restaurant Name": "burrito bar & kitchen", "Time of Submission": "08\/15\/2020 02:38:00 PM" }, "geometry": { "type": "Point", "coordinates": [ -73.973429, 40.678546 ] } },
{ "type": "Feature", "properties": { "Restaurant Name": "THAISM", "Time of Submission": "10\/06\/2020 05:03:00 PM" }, "geometry": null },
{ "type": "Feature", "properties": { "Restaurant Name": "LUCKY DOG", "Time of Submission": "10\/07\/2020 01:02:00 PM" }, "geometry": null },
{ "type": "Feature", "properties": { "Restaurant Name": "UDOM THAI", "Time of Submission": "09\/11\/2020 05:55:00 PM" }, "geometry": null },
{ "type": "Feature", "properties": { "Restaurant Name": "TABARE RESTAURANT", "Time of Submission": "09\/02\/2020 04:22:00 PM" }, "geometry": null },
{ "type": "Feature", "properties": { "Restaurant Name": "Not Today Maybe Tomorrow", "Time of Submission": "09\/09\/2020 02:02:00 PM" }, "geometry": null },
{ "type": "Feature", "properties": { "Restaurant Name": "Parkway Restaurant", "Time of Submission": "08\/07\/2020 11:49:00 AM" }, "geometry": { "type": "Point", "coordinates": [ -74.007546, 40.620203 ] } },
{ "type": "Feature", "properties": { "Restaurant Name": "White Tiger", "Time of Submission": "08\/07\/2020 11:23:00 AM" }, "geometry": { "type": "Point", "coordinates": [ -73.968176, 40.67953 ] } },
{ "type": "Feature", "properties": { "Restaurant Name": "Blue Collar", "Time of Submission": "08\/18\/2020 08:29:00 AM" }, "geometry": { "type": "Point", "coordinates": [ -73.920579, 40.702925 ] } },
{ "type": "Feature", "properties": { "Restaurant Name": "Wild Birds", "Time of Submission": "08\/20\/2020 03:44:00 PM" }, "geometry": { "type": "Point", "coordinates": [ -73.958352, 40.678185 ] } },
{ "type": "Feature", "properties": { "Restaurant Name": "Bricolage", "Time of Submission": "08\/14\/2020 08:00:00 PM" }, "geometry": { "type": "Point", "coordinates": [ -73.979479, 40.677877 ] } },
{ "type": "Feature", "properties": { "Restaurant Name": "SUEDE", "Time of Submission": "10\/14\/2020 02:30:00 PM" }, "geometry": null },
{ "type": "Feature", "properties": { "Restaurant Name": "MR.Q'S GOURMET INC", "Time of Submission": "08\/17\/2020 01:36:00 PM" }, "geometry": { "type": "Point", "coordinates": [ -74.008572, 40.63646 ] } },
{ "type": "Feature", "properties": { "Restaurant Name": "Miti Miti", "Time of Submission": "08\/14\/2020 02:55:00 PM" }, "geometry": null },
{ "type": "Feature", "properties": { "Restaurant Name": "Olmsted", "Time of Submission": "08\/07\/2020 01:17:00 PM" }, "geometry": { "type": "Point", "coordinates": [ -73.96901, 40.677222 ] } },
{ "type": "Feature", "properties": { "Restaurant Name": "Zona Sur", "Time of Submission": "08\/17\/2020 05:49:00 PM" }, "geometry": { "type": "Point", "coordinates": [ -74.008653, 40.650256 ] } },
{ "type": "Feature", "properties": { "Restaurant Name": "LITTLE SKIPS EAST", "Time of Submission": "09\/10\/2020 03:26:00 PM" }, "geometry": null },
{ "type": "Feature", "properties": { "Restaurant Name": "FROST RESTAURANT", "Time of Submission": "08\/27\/2020 01:06:00 PM" }, "geometry": null },
{ "type": "Feature", "properties": { "Restaurant Name": "Mally's Deli & Grocery corp.", "Time of Submission": "08\/08\/2020 01:36:00 AM" }, "geometry": { "type": "Point", "coordinates": [ -73.92663, 40.703528 ] } },
{ "type": "Feature", "properties": { "Restaurant Name": "FATHER KNOWS BEST", "Time of Submission": "09\/10\/2020 10:19:00 PM" }, "geometry": null },
{ "type": "Feature", "properties": { "Restaurant Name": "FAZIO'S", "Time of Submission": "10\/06\/2020 06:18:00 PM" }, "geometry": null },
{ "type": "Feature", "properties": { "Restaurant Name": "Park Asia", "Time of Submission": "08\/12\/2020 05:07:00 PM" }, "geometry": { "type": "Point", "coordinates": [ -74.012837, 40.631821 ] } },
{ "type": "Feature", "properties": { "Restaurant Name": "THE HOLLER", "Time of Submission": "08\/26\/2020 01:35:00 PM" }, "geometry": null },
{ "type": "Feature", "properties": { "Restaurant Name": "Franks Wine Bar", "Time of Submission": "08\/20\/2020 06:21:00 PM" }, "geometry": { "type": "Point", "coordinates": [ -73.998356, 40.677237 ] } },
{ "type": "Feature", "properties": { "Restaurant Name": "SIP N CHAT COCKTAIL", "Time of Submission": "08\/30\/2020 06:06:00 PM" }, "geometry": null },
{ "type": "Feature", "properties": { "Restaurant Name": "JACKBAR", "Time of Submission": "10\/08\/2020 05:13:00 PM" }, "geometry": null },
{ "type": "Feature", "properties": { "Restaurant Name": "Kushi Izakaya Restaurant, Inc", "Time of Submission": "08\/11\/2020 03:10:00 PM" }, "geometry": { "type": "Point", "coordinates": [ -73.999582, 40.605392 ] } },
{ "type": "Feature", "properties": { "Restaurant Name": "Lila Cafe", "Time of Submission": "08\/06\/2020 04:36:00 PM" }, "geometry": { "type": "Point", "coordinates": [ -73.94045, 40.692636 ] } },
{ "type": "Feature", "properties": { "Restaurant Name": "La Cabana", "Time of Submission": "08\/07\/2020 02:19:00 PM" }, "geometry": { "type": "Point", "coordinates": [ -74.007492, 40.64781 ] } },
{ "type": "Feature", "properties": { "Restaurant Name": "LE MISTRAL", "Time of Submission": "10\/09\/2020 11:49:00 PM" }, "geometry": null },
{ "type": "Feature", "properties": { "Restaurant Name": "The Wilky", "Time of Submission": "08\/16\/2020 02:45:00 PM" }, "geometry": { "type": "Point", "coordinates": [ -73.927101, 40.688059 ] } },
{ "type": "Feature", "properties": { "Restaurant Name": "BRICOLAGE", "Time of Submission": "10\/11\/2020 12:49:00 AM" }, "geometry": null },
{ "type": "Feature", "properties": { "Restaurant Name": "Parish", "Time of Submission": "08\/03\/2020 06:50:00 PM" }, "geometry": { "type": "Point", "coordinates": [ -73.978908, 40.670082 ] } },
{ "type": "Feature", "properties": { "Restaurant Name": "LUNATICO", "Time of Submission": "10\/21\/2020 03:22:00 PM" }, "geometry": null },
{ "type": "Feature", "properties": { "Restaurant Name": "U CAFE", "Time of Submission": "10\/02\/2020 08:41:00 PM" }, "geometry": null },
{ "type": "Feature", "properties": { "Restaurant Name": "SIMON'S BBQ II", "Time of Submission": "09\/30\/2020 01:52:00 PM" }, "geometry": null },
{ "type": "Feature", "properties": { "Restaurant Name": "THE LITTLE WHISKEY", "Time of Submission": "10\/13\/2020 02:04:00 PM" }, "geometry": null },
{ "type": "Feature", "properties": { "Restaurant Name": "BLACK FLAMINGO", "Time of Submission": "09\/09\/2020 03:16:00 PM" }, "geometry": null },
{ "type": "Feature", "properties": { "Restaurant Name": "Darlings", "Time of Submission": "08\/02\/2020 11:24:00 AM" }, "geometry": { "type": "Point", "coordinates": [ -73.919785, 40.700158 ] } },
{ "type": "Feature", "properties": { "Restaurant Name": "FU MUN LOU", "Time of Submission": "09\/03\/2020 02:52:00 PM" }, "geometry": null },
{ "type": "Feature", "properties": { "Restaurant Name": "Keg & lantern Brewing", "Time of Submission": "08\/04\/2020 03:25:00 PM" }, "geometry": { "type": "Point", "coordinates": [ -74.015964, 40.675575 ] } },
{ "type": "Feature", "properties": { "Restaurant Name": "WANISA KITCHEN", "Time of Submission": "12\/13\/2020 04:18:00 PM" }, "geometry": null },
{ "type": "Feature", "properties": { "Restaurant Name": "BATHHOUSE", "Time of Submission": "10\/19\/2020 11:57:00 AM" }, "geometry": null },
{ "type": "Feature", "properties": { "Restaurant Name": "Enoteca On Court", "Time of Submission": "08\/07\/2020 05:52:00 PM" }, "geometry": { "type": "Point", "coordinates": [ -73.995951, 40.682232 ] } },
{ "type": "Feature", "properties": { "Restaurant Name": "Krolewskie Jadlo", "Time of Submission": "08\/16\/2020 05:14:00 PM" }, "geometry": { "type": "Point", "coordinates": [ -73.951576, 40.725175 ] } },
{ "type": "Feature", "properties": { "Restaurant Name": "BROOKLYN SAFE HOUSE", "Time of Submission": "09\/23\/2020 12:37:00 PM" }, "geometry": null },
{ "type": "Feature", "properties": { "Restaurant Name": "FOREVER INK BAR", "Time of Submission": "09\/28\/2020 02:26:00 PM" }, "geometry": null },
{ "type": "Feature", "properties": { "Restaurant Name": "OAXACA TAQUERIA", "Time of Submission": "10\/09\/2020 10:53:00 AM" }, "geometry": null },
{ "type": "Feature", "properties": { "Restaurant Name": "THE PATIO RESTAURANT", "Time of Submission": "10\/29\/2020 09:27:00 PM" }, "geometry": null },
{ "type": "Feature", "properties": { "Restaurant Name": "NOSTRAND SOCIAL", "Time of Submission": "10\/08\/2020 01:23:00 PM" }, "geometry": null },
{ "type": "Feature", "properties": { "Restaurant Name": "ICHIRAN U.S.A. INC", "Time of Submission": "08\/05\/2020 02:17:00 PM" }, "geometry": { "type": "Point", "coordinates": [ -73.933435, 40.707558 ] } },
{ "type": "Feature", "properties": { "Restaurant Name": "Wild Birds", "Time of Submission": "08\/08\/2020 05:10:00 PM" }, "geometry": { "type": "Point", "coordinates": [ -73.958352, 40.678185 ] } },
{ "type": "Feature", "properties": { "Restaurant Name": "CHARM BAR", "Time of Submission": "11\/19\/2020 02:07:00 PM" }, "geometry": null },
{ "type": "Feature", "properties": { "Restaurant Name": "PULIA", "Time of Submission": "09\/05\/2020 10:47:00 AM" }, "geometry": null },
{ "type": "Feature", "properties": { "Restaurant Name": "MR. BAO", "Time of Submission": "10\/23\/2020 10:00:00 PM" }, "geometry": null },
{ "type": "Feature", "properties": { "Restaurant Name": "UDOM THAI", "Time of Submission": "09\/11\/2020 05:49:00 PM" }, "geometry": null },
{ "type": "Feature", "properties": { "Restaurant Name": "MAMA CAPRI", "Time of Submission": "10\/06\/2020 01:50:00 PM" }, "geometry": null },
{ "type": "Feature", "properties": { "Restaurant Name": "Teddy's Bar & Grill", "Time of Submission": "08\/06\/2020 09:38:00 AM" }, "geometry": { "type": "Point", "coordinates": [ -73.958337, 40.719277 ] } },
{ "type": "Feature", "properties": { "Restaurant Name": "TIJUANA SPORTS BAR", "Time of Submission": "09\/23\/2020 03:21:00 PM" }, "geometry": null },
{ "type": "Feature", "properties": { "Restaurant Name": "TERRA", "Time of Submission": "09\/14\/2020 01:08:00 PM" }, "geometry": null },
{ "type": "Feature", "properties": { "Restaurant Name": "The Royal Palms Shuffleboard Club", "Time of Submission": "09\/04\/2020 04:14:00 PM" }, "geometry": null },
{ "type": "Feature", "properties": { "Restaurant Name": "WINE LEGEND", "Time of Submission": "10\/16\/2020 08:28:00 PM" }, "geometry": null },
{ "type": "Feature", "properties": { "Restaurant Name": "Teddy's Bar & Grill", "Time of Submission": "08\/06\/2020 09:31:00 AM" }, "geometry": { "type": "Point", "coordinates": [ -73.958337, 40.719277 ] } },
{ "type": "Feature", "properties": { "Restaurant Name": "C &amp; L OF EAST OCEAN RESTAURANT", "Time of Submission": "10\/14\/2020 02:53:00 PM" }, "geometry": null },
{ "type": "Feature", "properties": { "Restaurant Name": "Kiku Asian bistro", "Time of Submission": "08\/14\/2020 11:13:00 PM" }, "geometry": { "type": "Point", "coordinates": [ -73.979652, 40.677581 ] } },
{ "type": "Feature", "properties": { "Restaurant Name": "AVLEE GREEK KITCHEN", "Time of Submission": "08\/02\/2020 10:45:00 AM" }, "geometry": null },
{ "type": "Feature", "properties": { "Restaurant Name": "YASHIN", "Time of Submission": "10\/29\/2020 01:51:00 PM" }, "geometry": null },
{ "type": "Feature", "properties": { "Restaurant Name": "FLAVA II LOUNGE", "Time of Submission": "08\/24\/2020 08:54:00 PM" }, "geometry": null },
{ "type": "Feature", "properties": { "Restaurant Name": "UOTORA", "Time of Submission": "08\/13\/2020 02:58:00 PM" }, "geometry": { "type": "Point", "coordinates": [ -73.950703, 40.676145 ] } },
{ "type": "Feature", "properties": { "Restaurant Name": "La Perla Del Ulua Restaurant Inc", "Time of Submission": "08\/21\/2020 08:00:00 PM" }, "geometry": { "type": "Point", "coordinates": [ -73.928026, 40.703691 ] } },
{ "type": "Feature", "properties": { "Restaurant Name": "PASTA LOUISE", "Time of Submission": "09\/02\/2020 09:45:00 AM" }, "geometry": null },
{ "type": "Feature", "properties": { "Restaurant Name": "ENLIGHTENMENT WINES", "Time of Submission": "10\/28\/2020 01:56:00 PM" }, "geometry": null },
{ "type": "Feature", "properties": { "Restaurant Name": "THE STEEL MILL", "Time of Submission": "12\/02\/2020 04:57:00 PM" }, "geometry": null },
{ "type": "Feature", "properties": { "Restaurant Name": "Happy house seafood restaurant", "Time of Submission": "08\/18\/2020 03:17:00 PM" }, "geometry": { "type": "Point", "coordinates": [ -74.003866, 40.640981 ] } },
{ "type": "Feature", "properties": { "Restaurant Name": "Acre", "Time of Submission": "10\/01\/2020 05:07:00 PM" }, "geometry": null },
{ "type": "Feature", "properties": { "Restaurant Name": "Archway Cafe", "Time of Submission": "08\/17\/2020 04:14:00 PM" }, "geometry": { "type": "Point", "coordinates": [ -73.987582, 40.703056 ] } },
{ "type": "Feature", "properties": { "Restaurant Name": "Grand Canyon Restaurant", "Time of Submission": "08\/02\/2020 10:49:00 AM" }, "geometry": { "type": "Point", "coordinates": [ -73.993613, 40.694614 ] } },
{ "type": "Feature", "properties": { "Restaurant Name": "191 KNICKERBOCKER AVENUE", "Time of Submission": "10\/27\/2020 05:43:00 PM" }, "geometry": null },
{ "type": "Feature", "properties": { "Restaurant Name": "Bilt Bar", "Time of Submission": "08\/14\/2020 06:31:00 PM" }, "geometry": { "type": "Point", "coordinates": [ -73.967901, 40.680304 ] } },
{ "type": "Feature", "properties": { "Restaurant Name": "VINEAPPLE", "Time of Submission": "12\/26\/2020 11:51:00 AM" }, "geometry": null },
{ "type": "Feature", "properties": { "Restaurant Name": "GUACUCO BED-STUY", "Time of Submission": "08\/28\/2020 01:50:00 PM" }, "geometry": null },
{ "type": "Feature", "properties": { "Restaurant Name": "Marco Polo Ristorante", "Time of Submission": "08\/07\/2020 06:09:00 PM" }, "geometry": { "type": "Point", "coordinates": [ -73.995922, 40.68229 ] } },
{ "type": "Feature", "properties": { "Restaurant Name": "BACCHUS", "Time of Submission": "09\/05\/2020 05:53:00 PM" }, "geometry": null },
{ "type": "Feature", "properties": { "Restaurant Name": "FANDI MATA", "Time of Submission": "12\/26\/2020 05:43:00 PM" }, "geometry": null },
{ "type": "Feature", "properties": { "Restaurant Name": "Black iris", "Time of Submission": "08\/21\/2020 11:43:00 AM" }, "geometry": { "type": "Point", "coordinates": [ -73.970284, 40.689505 ] } },
{ "type": "Feature", "properties": { "Restaurant Name": "CAFE &amp; RESTAURANT BONGAR", "Time of Submission": "10\/16\/2020 01:33:00 PM" }, "geometry": null },
{ "type": "Feature", "properties": { "Restaurant Name": "Ako Sushi", "Time of Submission": "08\/12\/2020 08:40:00 PM" }, "geometry": { "type": "Point", "coordinates": [ -73.958555, 40.717048 ] } },
{ "type": "Feature", "properties": { "Restaurant Name": "La Villa pizza", "Time of Submission": "08\/06\/2020 03:42:00 PM" }, "geometry": { "type": "Point", "coordinates": [ -73.981881, 40.674461 ] } },
{ "type": "Feature", "properties": { "Restaurant Name": "Eugene & Co", "Time of Submission": "08\/06\/2020 08:48:00 PM" }, "geometry": { "type": "Point", "coordinates": [ -73.944016, 40.683915 ] } },
{ "type": "Feature", "properties": { "Restaurant Name": "Dallas bbq", "Time of Submission": "08\/04\/2020 12:35:00 PM" }, "geometry": { "type": "Point", "coordinates": [ -73.947676, 40.632603 ] } },
{ "type": "Feature", "properties": { "Restaurant Name": "BEER STREET SOUTH", "Time of Submission": "08\/30\/2020 09:48:00 AM" }, "geometry": null },
{ "type": "Feature", "properties": { "Restaurant Name": "DunHuang MissNoodle", "Time of Submission": "08\/19\/2020 10:04:00 PM" }, "geometry": { "type": "Point", "coordinates": [ -73.963362, 40.693714 ] } },
{ "type": "Feature", "properties": { "Restaurant Name": "TAIKI AND RICE &amp; MISO", "Time of Submission": "09\/16\/2020 03:01:00 PM" }, "geometry": null },
{ "type": "Feature", "properties": { "Restaurant Name": "caffe e vino", "Time of Submission": "08\/04\/2020 02:36:00 PM" }, "geometry": { "type": "Point", "coordinates": [ -73.978235, 40.689812 ] } },
{ "type": "Feature", "properties": { "Restaurant Name": "YASHIN", "Time of Submission": "10\/29\/2020 01:56:00 PM" }, "geometry": null },
{ "type": "Feature", "properties": { "Restaurant Name": "DEMI-MONDE", "Time of Submission": "08\/26\/2020 03:56:00 PM" }, "geometry": null },
{ "type": "Feature", "properties": { "Restaurant Name": "BASQUIAT'S BOTTLE", "Time of Submission": "08\/28\/2020 05:19:00 PM" }, "geometry": null },
{ "type": "Feature", "properties": { "Restaurant Name": "Soda Bar", "Time of Submission": "08\/07\/2020 03:49:00 PM" }, "geometry": { "type": "Point", "coordinates": [ -73.968623, 40.678287 ] } },
{ "type": "Feature", "properties": { "Restaurant Name": "D&D Cafe", "Time of Submission": "08\/18\/2020 03:53:00 PM" }, "geometry": null },
{ "type": "Feature", "properties": { "Restaurant Name": "PELICAN REEF CATERERS", "Time of Submission": "08\/25\/2020 09:30:00 AM" }, "geometry": null },
{ "type": "Feature", "properties": { "Restaurant Name": "El Rey Del Pescado", "Time of Submission": "08\/07\/2020 02:14:00 PM" }, "geometry": { "type": "Point", "coordinates": [ -74.007542, 40.647761 ] } },
{ "type": "Feature", "properties": { "Restaurant Name": "Bordeaux", "Time of Submission": "08\/10\/2020 02:58:00 PM" }, "geometry": { "type": "Point", "coordinates": [ -73.962521, 40.610695 ] } },
{ "type": "Feature", "properties": { "Restaurant Name": "Sugarburg", "Time of Submission": "08\/01\/2020 07:59:00 PM" }, "geometry": { "type": "Point", "coordinates": [ -73.951158, 40.714075 ] } },
{ "type": "Feature", "properties": { "Restaurant Name": "HQ LOUNGE INC", "Time of Submission": "08\/05\/2020 06:47:00 PM" }, "geometry": { "type": "Point", "coordinates": [ -73.948966, 40.646885 ] } },
{ "type": "Feature", "properties": { "Restaurant Name": "THE LITTLE SWEET CAFE", "Time of Submission": "09\/24\/2020 03:50:00 PM" }, "geometry": null },
{ "type": "Feature", "properties": { "Restaurant Name": "New Beach Bar LLC", "Time of Submission": "08\/10\/2020 10:45:00 AM" }, "geometry": { "type": "Point", "coordinates": [ -73.92507, 40.592772 ] } },
{ "type": "Feature", "properties": { "Restaurant Name": "BROWN SUGAR CLUB", "Time of Submission": "09\/17\/2020 08:40:00 PM" }, "geometry": null },
{ "type": "Feature", "properties": { "Restaurant Name": "The Big Whiskey", "Time of Submission": "10\/12\/2020 06:02:00 PM" }, "geometry": null },
{ "type": "Feature", "properties": { "Restaurant Name": "UOTORA JAPANESE RESTAURANT", "Time of Submission": "09\/28\/2020 01:04:00 PM" }, "geometry": null },
{ "type": "Feature", "properties": { "Restaurant Name": "Medusa", "Time of Submission": "08\/14\/2020 02:01:00 PM" }, "geometry": { "type": "Point", "coordinates": [ -73.978967, 40.678602 ] } },
{ "type": "Feature", "properties": { "Restaurant Name": "PITANT SPORT TEAM", "Time of Submission": "09\/01\/2020 10:05:00 AM" }, "geometry": null },
{ "type": "Feature", "properties": { "Restaurant Name": "FREDDY'S BAR", "Time of Submission": "09\/12\/2020 09:31:00 AM" }, "geometry": null },
{ "type": "Feature", "properties": { "Restaurant Name": "86 Chikurin Japanese Restaurant", "Time of Submission": "08\/20\/2020 01:05:00 PM" }, "geometry": { "type": "Point", "coordinates": [ -73.990018, 40.599614 ] } },
{ "type": "Feature", "properties": { "Restaurant Name": "BORSALIA", "Time of Submission": "10\/06\/2020 05:50:00 PM" }, "geometry": null },
{ "type": "Feature", "properties": { "Restaurant Name": "ARTICHOKE BASILLE'S PIZZA", "Time of Submission": "09\/15\/2020 12:13:00 PM" }, "geometry": null },
{ "type": "Feature", "properties": { "Restaurant Name": "Mad Tropical", "Time of Submission": "08\/17\/2020 12:46:00 AM" }, "geometry": { "type": "Point", "coordinates": [ -73.926873, 40.702479 ] } },
{ "type": "Feature", "properties": { "Restaurant Name": "We Got Company", "Time of Submission": "08\/06\/2020 01:47:00 PM" }, "geometry": { "type": "Point", "coordinates": [ -73.953889, 40.714079 ] } },
{ "type": "Feature", "properties": { "Restaurant Name": "BARB'S", "Time of Submission": "09\/17\/2020 08:35:00 PM" }, "geometry": null },
{ "type": "Feature", "properties": { "Restaurant Name": "101 WILSON BAR", "Time of Submission": "09\/14\/2020 08:25:00 PM" }, "geometry": null },
{ "type": "Feature", "properties": { "Restaurant Name": "Ten Japanese Cuisine", "Time of Submission": "08\/06\/2020 05:09:00 PM" }, "geometry": { "type": "Point", "coordinates": [ -73.98143, 40.661747 ] } },
{ "type": "Feature", "properties": { "Restaurant Name": "Grand Canyon Diner", "Time of Submission": "08\/04\/2020 09:06:00 PM" }, "geometry": { "type": "Point", "coordinates": [ -73.977776, 40.671441 ] } },
{ "type": "Feature", "properties": { "Restaurant Name": "OKEEFES", "Time of Submission": "09\/03\/2020 02:25:00 PM" }, "geometry": null },
{ "type": "Feature", "properties": { "Restaurant Name": "PACIFIC PALACE", "Time of Submission": "09\/26\/2020 10:46:00 PM" }, "geometry": null },
{ "type": "Feature", "properties": { "Restaurant Name": "The Circus", "Time of Submission": "08\/21\/2020 06:31:00 PM" }, "geometry": { "type": "Point", "coordinates": [ -73.962561, 40.610909 ] } },
{ "type": "Feature", "properties": { "Restaurant Name": "HIGH LUA VIETNAMESE KITCHEN", "Time of Submission": "09\/30\/2020 04:17:00 PM" }, "geometry": null },
{ "type": "Feature", "properties": { "Restaurant Name": "MORGAN'S BBQ", "Time of Submission": "09\/28\/2020 10:33:00 AM" }, "geometry": null }
]
}
